{"_default": {"1": {"id": 1, "name": "Boi", "address": "6046 West Lake Sammamish Parkway NE, Redmond, WA 98052", "info": "He's a cat", "contact": "123-456-789", "date": "yesterday", "coord": [{"address_components": [{"long_name": "6046", "short_name": "6046", "types": ["street_number"]}, {"long_name": "West Lake Sammamish Parkway Northeast", "short_name": "West Lake Sammamish Pkwy NE", "types": ["route"]}, {"long_name": "Southeast Redmond", "short_name": "Southeast Redmond", "types": ["neighborhood", "political"]}, {"long_name": "Redmond", "short_name": "Redmond", "types": ["locality", "political"]}, {"long_name": "King County", "short_name": "King County", "types": ["administrative_area_level_2", "political"]}, {"long_name": "Washington", "short_name": "WA", "types": ["administrative_area_level_1", "political"]}, {"long_name": "United States", "short_name": "US", "types": ["country", "political"]}, {"long_name": "98052", "short_name": "98052", "types": ["postal_code"]}], "formatted_address": "6046 West Lake Sammamish Pkwy NE, Redmond, WA 98052, USA", "geometry": {"location": {"lat": 47.6603776, "lng": -122.1195179}, "location_type": "ROOFTOP", "viewport": {"northeast": {"lat": 47.66172658029149, "lng": -122.1181689197085}, "southwest": {"lat": 47.65902861970849, "lng": -122.1208668802915}}}, "place_id": "ChIJL65M86NykFQRaZctYtuUfT4", "plus_code": {"compound_code": "MV6J+55 Southeast Redmond, Redmond, WA, United States", "global_code": "84VVMV6J+55"}, "types": ["street_address"]}]}, "2": {"id": 2, "name": "Tom", "address": "11225 NE 120th St, Kirkland, WA 98034", "info": "He was chasing a mouse ", "contact": "911", "date": "tomorrow ", "coord": [{"address_components": [{"long_name": "11225", "short_name": "11225", "types": ["street_number"]}, {"long_name": "Northeast 120th Street", "short_name": "NE 120th St", "types": ["route"]}, {"long_name": "Totem Lake", "short_name": "Totem Lake", "types": ["neighborhood", "political"]}, {"long_name": "Kirkland", "short_name": "Kirkland", "types": ["locality", "political"]}, {"long_name": "King County", "short_name": "King County", "types": ["administrative_area_level_2", "political"]}, {"long_name": "Washington", "short_name": "WA", "types": ["administrative_area_level_1", "political"]}, {"long_name": "United States", "short_name": "US", "types": ["country", "political"]}, {"long_name": "98034", "short_name": "98034", "types": ["postal_code"]}], "formatted_address": "11225 NE 120th St, Kirkland, WA 98034, USA", "geometry": {"location": {"lat": 47.70683649999999, "lng": -122.1918986}, "location_type": "ROOFTOP", "viewport": {"northeast": {"lat": 47.70818548029149, "lng": -122.1905496197085}, "southwest": {"lat": 47.7054875197085, "lng": -122.1932475802915}}}, "place_id": "ChIJEQrTr34SkFQRHl7yO5nsnI4", "plus_code": {"compound_code": "PR45+P6 Kirkland, Washington, United States", "global_code": "84VVPR45+P6"}, "types": ["street_address"]}]}, "3": {"id": 3, "name": "Jerry", "address": "7400 Sand Point Way NE, Seattle, WA 98115", "info": "He was running away from a cat", "contact": "611", "date": "next week", "coord": [{"address_components": [{"long_name": "7400", "short_name": "7400", "types": ["street_number"]}, {"long_name": "Sand Point Way Northeast", "short_name": "Sand Point Way NE", "types": ["route"]}, {"long_name": "Northeast Seattle", "short_name": "Northeast Seattle", "types": ["neighborhood", "political"]}, {"long_name": "Seattle", "short_name": "Seattle", "types": ["locality", "political"]}, {"long_name": "King County", "short_name": "King County", "types": ["administrative_area_level_2", "political"]}, {"long_name": "Washington", "short_name": "WA", "types": ["administrative_area_level_1", "political"]}, {"long_name": "United States", "short_name": "US", "types": ["country", "political"]}, {"long_name": "98115", "short_name": "98115", "types": ["postal_code"]}], "formatted_address": "7400 Sand Point Way NE, Seattle, WA 98115, USA", "geometry": {"location": {"lat": 47.6820689, "lng": -122.2633001}, "location_type": "ROOFTOP", "viewport": {"northeast": {"lat": 47.68341788029151, "lng": -122.2619511197085}, "southwest": {"lat": 47.68071991970851, "lng": -122.2646490802915}}}, "place_id": "ChIJD6LsV3UTkFQRkzIq3r1Tjds", "plus_code": {"compound_code": "MPJP+RM Seattle, Washington, United States", "global_code": "84VVMPJP+RM"}, "types": ["street_address"]}]}}}
