{"_default": {"1": {"name": "Marymoor Park", "address": "6046 West Lake Sammamish Pkwy NE, Redmond, WA 98052", "coord": {"lat": 47.6603776, "lng": -122.1195179}}, "2": {"name": "Jasper Dog Park", "address": "11225 NE 120th St, Kirkland, WA 98034", "coord": {"lat": 47.70683649999999, "lng": -122.1918986}}, "3": {"name": "Grass Lawn Park", "address": "7031 148th Ave NE, Redmond, WA 98052", "coord": {"lat": 47.6688159, "lng": -122.1435541}}, "4": {"name": "Mark Twain Park", "address": "10625 132nd Ave NE, Kirkland, WA 98033", "coord": {"lat": 47.695665, "lng": -122.1664557}}, "5": {"name": "Sixty Acres Park", "address": "15200 NE 116th St, Redmond, WA 98052", "coord": {"lat": 47.7047699, "lng": -122.140177}}, "6": {"name": "Hartman Park", "address": "17300 NE 104th St, Redmond, WA 98052", "coord": {"lat": 47.6912579, "lng": -122.1085591}}, "7": {"name": "Bear Creek Park", "address": "Evans Creek Trail, Redmond, WA 98053", "coord": {"lat": 47.68029130000001, "lng": -122.0841814}}, "8": {"name": "Bridle Trails State Park", "address": "5300 116th Ave NE, Kirkland, WA 98033", "coord": {"lat": 47.65532169999999, "lng": -122.1850405}}, "9": {"name": "Richmond Beach Saltwater Park", "address": "2021 NW 190th St, Shoreline, WA 98177", "coord": {"lat": 47.7658449, "lng": -122.3833971}}, "10": {"name": "Luther Burbank Park", "address": "2040 84th Ave SE, Mercer Island, WA 98040", "coord": {"lat": 47.5915401, "lng": -122.2252619}}, "11": {"name": "Idylwood Park", "address": "3650 West Lake Sammamish Pkwy NE, Redmond, WA 98052", "coord": {"lat": 47.6437009, "lng": -122.1052024}}, "12": {"name": "Tambark Creek Park", "address": "17217 35th Ave SE, Bothell, WA 98012", "coord": {"lat": 47.839625, "lng": -122.1810038}}, "13": {"name": "Warren G. Magnuson Park Off Leash Area", "address": "7400 Sand Point Way NE, Seattle, WA 98115", "coord": {"lat": 47.6820689, "lng": -122.2633001}}, "14": {"name": "Marymoor Park", "address": "6046 West Lake Sammamish Pkwy NE, Redmond, WA 98052", "coord": {"lat": 47.6603776, "lng": -122.1195179}}, "15": {"name": "Jasper Dog Park", "address": "11225 NE 120th St, Kirkland, WA 98034", "coord": {"lat": 47.70683649999999, "lng": -122.1918986}}, "16": {"name": "Grass Lawn Park", "address": "7031 148th Ave NE, Redmond, WA 98052", "coord": {"lat": 47.6688159, "lng": -122.1435541}}, "17": {"name": "Mark Twain Park", "address": "10625 132nd Ave NE, Kirkland, WA 98033", "coord": {"lat": 47.695665, "lng": -122.1664557}}, "18": {"name": "Sixty Acres Park", "address": "15200 NE 116th St, Redmond, WA 98052", "coord": {"lat": 47.7047699, "lng": -122.140177}}, "19": {"name": "Hartman Park", "address": "17300 NE 104th St, Redmond, WA 98052", "coord": {"lat": 47.6912579, "lng": -122.1085591}}, "20": {"name": "Bear Creek Park", "address": "Evans Creek Trail, Redmond, WA 98053", "coord": {"lat": 47.68029130000001, "lng": -122.0841814}}, "21": {"name": "Bridle Trails State Park", "address": "5300 116th Ave NE, Kirkland, WA 98033", "coord": {"lat": 47.65532169999999, "lng": -122.1850405}}, "22": {"name": "Richmond Beach Saltwater Park", "address": "2021 NW 190th St, Shoreline, WA 98177", "coord": {"lat": 47.7658449, "lng": -122.3833971}}, "23": {"name": "Luther Burbank Park", "address": "2040 84th Ave SE, Mercer Island, WA 98040", "coord": {"lat": 47.5915401, "lng": -122.2252619}}, "24": {"name": "Idylwood Park", "address": "3650 West Lake Sammamish Pkwy NE, Redmond, WA 98052", "coord": {"lat": 47.6437009, "lng": -122.1052024}}, "25": {"name": "Tambark Creek Park", "address": "17217 35th Ave SE, Bothell, WA 98012", "coord": {"lat": 47.839625, "lng": -122.1810038}}, "26": {"name": "Warren G. Magnuson Park Off Leash Area", "address": "7400 Sand Point Way NE, Seattle, WA 98115", "coord": {"lat": 47.6820689, "lng": -122.2633001}}}}